timestamp,aot,sideslip,thrust,lift,drag,side,mx,my,mz,u,v,w,roll_deg,pitch_deg,yaw_deg,p,q,r
1782337999.845215,0.0,0.0,0.0,0.0,-0.0,0.0,0.0,0.0,0.0,-0.039240002632140975,-4.6055023310609404e-12,-3.3076842526261843e-09,6.724659485237039e-09,-89.99999517032317,0.0,0.0,0.0,0.0
1782337999.8617883,0.0,0.0,0.0,0.0,-0.0,0.0,0.0,0.0,0.0,-0.07847804576158496,-8.352786503353486e-12,-6.615974072470137e-09,2.4964148250369693e-08,-89.9999951703236,0.0,-5.19881101907838e-12,2.8069926826439497e-08,-2.1034552004759074e-09
1782338000.1523752,3.1415924849867567,4.254171870030218e-10,0.0,-0.010212576549753372,-0.2538058701845411,2.82810872092165e-12,2.1791780486987893e-10,0.006603531364660771,5.2873022304259e-11,-0.11771412193775009,-5.007761062528905e-11,-1.984695839512175e-08,0.14458114963951357,-89.99999034062374,-0.14458112526491293,-1.55941673364125e-11,8.420272479001258e-08,-6.309837135712866e-09
1782338000.157381,3.1415599235087375,4.366748637754968e-10,0.0,-0.018110770817220477,-0.45045017632374423,5.152196890743084e-12,2.5480213295164366e-08,0.01171772406615325,4.782444410780232e-09,-0.15682134032163145,-6.847993745871907e-11,-5.132775181817039e-06,0.14829673922260656,-89.99999034062296,-0.1482967330874947,-1.9664822305247762e-08,8.842191891738808e-05,-4.733035566963285e-07
1782338000.1618874,3.141520168687239,4.370988365926205e-10,0.0,-0.028212903949191678,-0.7023884390782789,8.041820575661304e-12,8.744616906052219e-08,0.018267474136410923,1.6372616462013615e-08,-0.19582827389001245,-8.559631091412961e-11,-1.4194593375129781e-05,0.14829673922260656,-89.99999034062296,-0.1482967330874947,-5.4468612594522835e-08,0.00024506807676500194,-1.2989270671361574e-06
1782338000.165887,3.141472047769814,1.0986219959643802e-08,0.0,-0.04047898513890713,-1.0089456905019125,2.90352393586604e-10,2.084741032992272e-07,0.02623333139361718,3.8912001307711785e-08,-0.23470729588985398,-2.578545997532598e-09,-2.8307066013145317e-05,3.7280566846840313,-89.9999903201718,-3.728056677867263,-1.0862131384738461e-07,0.000489121186545481,-2.5830277846746487e-06
1782338000.216007,3.1414097776089034,3.47560330576821e-08,0.0,-0.05485266388423379,-1.369288428659986,1.2466655120321762e-09,4.1593004704389e-07,0.03559134018014272,7.739589144109623e-08,-0.27343109223081447,-9.503380239486055e-09,-5.0003979754964505e-05,0.3632283626248797,-89.99968606497575,-0.363228391089521,-1.861932188002202e-07,0.0008393719326662047,-4.423940629908237e-06
1782338000.220507,3.14133838136623,6.879733600340713e-08,0.0,-0.07127886800896749,-1.7824397673183214,3.2123956928905717e-09,7.41965254938857e-07,0.04631334765569427,1.3774168749776735e-07,-0.31197279607282297,-2.1462897969179448e-08,-7.932601825833738e-05,0.36201001184663667,-89.99937695980495,-0.36201005604517666,-2.911504311273149e-07,0.001314199878819522,-6.918017212431672e-06
1782338000.2245128,3.141257781373686,1.0310181851053407e-07,0.0,-0.08969049271961972,-2.247276350908331,6.069953898987649e-09,1.2232734196246472e-06,0.05836703125374506,2.2688449287029834e-07,-0.35030597261199686,-3.611718483647807e-08,-0.0001173077417490224,0.36034866243659597,-89.99906302495474,-0.36034875007833234,-4.272835175032805e-07,0.001931554288574962,-1.0159478218881292e-05
1782338000.2285128,3.1411627421781874,1.5580841660682157e-07,0.0,-0.10999815893027255,-2.762530006673152,1.1276754676058343e-08,1.9004940904484207e-06,0.07171603680368757,3.520074705646395e-07,-0.38840481199989463,-6.051674435264218e-08,-0.0001669796712886282,0.3278001068230591,-89.99844481992113,-0.32779994430724885,-5.981919309393865e-07,0.002708873012901182,-1.4240057043771032e-05
1782338000.2435524,3.141053211110506,2.3227973390342652e-07,0.0,-0.13211044984675252,-3.326805661298969,2.0246604685364052e-08,2.8180291247574683e-06,0.08632035612301447,5.210398973705361e-07,-0.4262441301090425,-9.900788752518528e-08,-0.00022993421263115956,0.3058893992744535,-89.99751751282612,-0.3058890313154972,-8.072883242274713e-07,0.0036629554812486866,-1.9248393366456737e-05
1782338000.2475588,3.1409292487753087,3.433571216471711e-07,0.0,-0.15592778198024587,-3.9385848154661676,3.543484574743007e-08,4.023521783249143e-06,0.10213649216056456,7.42206821977244e-07,-0.46379939802505016,-1.5924886137076239e-07,-0.00030768679874311743,0.30159819135808746,-89.9962811007716,-0.3015976701873848,-1.0577989692190904e-06,0.004809930454348337,-2.5269897010187193e-05
1782338000.251578,3.140790936286561,4.781253889848763e-07,0.0,-0.18134301891054133,-4.59623592174768,5.758678253953857e-08,5.567691661265493e-06,0.11911776581374141,1.0249345435945207e-06,-0.5010469207922623,-2.3956333089323057e-07,-0.0004016980721942212,0.2963623294506559,-89.99473558627751,-0.2963622663125235,-1.3526134462024936e-06,0.006165201309389834,-3.238638975531725e-05
1782338000.256595,3.1406383730911345,6.426907255043373e-07,0.0,-0.2082421220774954,-5.29802114653252,8.9234415656995e-08,7.503530179523057e-06,0.13721453047287038,1.3785286824220097e-06,-0.5379637479497618,-3.457444688912203e-07,-0.0005133684694869652,0.2942266907753077,-89.99288096850275,-0.29422743096742787,-1.6944415888397386e-06,0.007743385154198228,-4.0675958644753815e-05
1782338000.2696016,3.1404716711552374,8.474512289220075e-07,0.0,-0.23650496887514563,-6.042107484122762,1.3420272183579035e-07,9.885904432209648e-06,0.1563745004787201,1.812267547765964e-06,-0.5745278224905149,-4.86884615129554e-07,-0.0006440358669410323,0.2971530493451316,-89.9907172441436,-0.29715433499054794,-2.0857862428345213e-06,0.009558267890781088,-5.021274386453005e-05
1782338000.2736123,3.1402855597157466,1.1002656401851175e-06,0.0,-0.26596931867716933,-6.826554669715457,1.9688092204623438e-07,1.2770862146940446e-05,0.17654270820670032,2.3356117888769465e-06,-0.6107179765165437,-6.719525794183319e-07,-0.0007982661804859462,0.2964436460609204,-89.98793531602098,-0.2964455194788722,-2.5285622234949613e-06,0.01162276044412136,-6.106652980005872e-05
1782338000.2776222,3.1400855688115143,1.3991518776208888e-06,0.0,-0.29653328354691993,-7.64938670209165,2.805729579646815e-07,1.621580520658058e-05,0.1976627862529713,2.9585839715219916e-06,-0.646514121023719,-9.045724736189289e-07,-0.0009743523284209352,0.2996439461252953,-89.98484427972517,-0.2996464500219808,-3.0248511268757266e-06,0.013948689213904084,-7.330202926246194e-05
1782338000.2816305,3.139866449497799,1.7471118897335231e-06,0.0,-0.3280168646794592,-8.508517713533513,3.897477105090946e-07,2.02780540889643e-05,0.21967592565696759,3.691076852566167e-06,-0.6818970512098614,-1.1913522207278474e-06,-0.0011770946492786721,0.30011017368684345,-89.98113503960259,-0.30011338746865246,-3.5757951131980084e-06,0.016547063364290494,-8.697988415214856e-05
1782338000.2961376,3.1396283555294473,2.1600145198416296e-06,0.0,-0.3602686796331835,-9.401824759637226,5.325214872513845e-07,2.5014666409315983e-05,0.24252218214076537,4.54167611855912e-06,-0.7168485774225767,-1.5484063229992788e-06,-0.0014081060812368934,0.3013076466201854,-89.97680759105195,-0.3013119136319396,-4.182747874746562e-06,0.019427699966922875,-0.00010215506949048544
1782338000.3001373,3.135154009649165,-1.901747374817194e-05,0.0,-0.34394267831200026,-10.131025019678635,-5.06518600695802e-06,2.6518665925688432e-05,0.26693479534689213,1.0470768403302545e-05,-0.7450755584735497,1.4169748585879566e-05,-0.004797342523153574,0.300503178585332,-89.97155283679773,-0.300508622947669,5.6076588614016896e-06,-0.024792030425595805,-0.0001437628944776658
1782338000.3041673,0.0,0.0,0.0,0.0,-0.0,0.0,0.0,0.0,0.0,-0.00828580090320463,0.00048377271885368734,-0.019179727560687483,178.91120552417888,-89.98905881626654,-178.9112160324714,-0.0026725748076864703,-0.017545896827463877,0.004310111072946338
1782338000.3081737,0.0,0.0,0.0,0.0,-0.0,0.0,0.0,0.0,0.0,-0.0003188882657414094,-5.3878022975327825e-05,-0.009734285491842359,179.97572555829154,-89.99554704132363,-179.9757641594525,2.4318747225025338e-05,0.029301466405393165,2.3312151178817142e-05
1782338000.3201869,0.0,0.0,0.0,0.0,-0.0,0.0,0.0,0.0,0.0,-0.00030735266975868416,-0.0001460777769953389,0.0033127159283901394,1.9960759402750183,-89.99998066958068,-1.9961655780607794,-0.0002028934405756767,-0.000342916007089857,-0.00020083986700060184
1782338000.323693,0.0,0.0,0.0,0.0,-0.0,0.0,0.0,0.0,0.0,-0.0004015297983615739,-0.00013106734184005746,0.0016393043857039558,178.87754899869495,-89.99848319172372,-178.8776430094918,-3.7274068135937006e-05,-0.004216544243527771,0.00021924262355496122
1782338000.3276925,0.0,0.0,0.0,0.0,-0.0,0.0,0.0,0.0,0.0,0.00022180504049498225,0.00030440953010632543,0.0007475634919825955,179.61332328746718,-89.99772034255835,-179.61341749661403,-7.596935781046476e-06,-0.002462640910772062,0.000306536945981919
1782338000.330696,0.0,0.0,0.0,0.0,-0.0,0.0,0.0,0.0,0.0,0.00010076294153166722,-8.061343892790885e-06,2.9992467329237855e-05,179.98741692129713,-89.99753686683665,-179.9875114099689,1.368102507535649e-06,-6.90613788413141e-05,8.662926320146933e-05
1782338000.3432407,0.0,0.0,0.0,0.0,-0.0,0.0,0.0,0.0,0.0,-5.790834436639766e-06,-1.648724793371251e-05,-0.0007165765123535059,179.97573676769997,-89.99785079552315,-179.9758309623802,6.061701192761409e-06,0.0021995299201945998,-1.0393004352023501e-05
1782338000.3467429,0.0,0.0,0.0,0.0,-0.0,0.0,0.0,0.0,0.0,-5.152996415449084e-05,-8.263215285557372e-06,-0.001468183892311738,179.96154489240092,-89.99876843322286,-179.96163815109995,5.833075882087848e-06,0.004453425296677566,-5.755211442553288e-07
1782338000.350242,0.0,0.0,0.0,0.0,-0.0,0.0,0.0,0.0,0.0,-7.815857600374178e-05,-4.566736610380099e-06,-0.0018034485980866352,175.35932644718864,-89.99995154442755,-175.35941919576732,-4.772770872095434e-07,0.005277928688617058,0.000128249101532306
1782338000.3537714,0.0,0.0,0.0,0.0,-0.0,0.0,0.0,0.0,0.0,-5.394471812843745e-05,-2.2450408784493137e-05,-0.00017703712330873985,-9.19762555638495e-05,-89.99999805185553,0.0,-2.038459948927039e-06,0.00015603543802172523,3.9447651404598173e-05
1782338000.365782,0.0,0.0,0.0,0.0,-0.0,0.0,0.0,0.0,0.0,-9.181918298468988e-05,-2.180840782846267e-05,-0.00023719022025101466,179.31648016949927,-89.99968604894715,-179.31657169734336,2.197991947045955e-05,0.0011489593796315044,7.961268934363157e-05
1782338000.3697858,0.0,0.0,0.0,0.0,-0.0,0.0,0.0,0.0,0.0,-3.494772183777351e-05,1.4359502274973706e-05,-0.0004904853146436095,-179.76142515549415,-89.99989857599684,179.76133342209644,1.1776327899454004e-05,0.0017331460669341597,4.696653564954074e-05
1782338000.3738022,0.0,0.0,0.0,0.0,-0.0,0.0,0.0,0.0,0.0,5.521908676454281e-05,-4.646915216381212e-06,-0.000390016098278644,-9.189208134453813e-05,-89.99999478841096,0.0,2.815896529312542e-06,0.0007376255624253758,-2.434833276931342e-05
1782338000.3773057,0.0,0.0,0.0,0.0,-0.0,0.0,0.0,0.0,0.0,-7.363571780425586e-05,2.1178665230867737e-06,1.2970802127079382e-05,-9.252207721917807e-05,-89.99999865685425,0.0,4.000416500521658e-06,0.0004833451742841289,4.085747621789281e-05
1782338000.3893132,0.0,0.0,0.0,0.0,-0.0,0.0,0.0,0.0,0.0,-0.00010792638038668418,2.0733246532396934e-05,-9.584643088894554e-05,179.16059842625216,-89.99962807530521,-179.1606902694185,3.969106341234676e-05,0.0013287318812984328,7.856385728565448e-05
1782338000.3928418,0.0,0.0,0.0,0.0,-0.0,0.0,0.0,0.0,0.0,-0.00014490283657500166,2.718502432143428e-05,-0.0006228618688792259,178.0556245701611,-89.99988885354038,-178.05571616630195,1.0149670977007036e-05,0.0020511013459980185,0.0001166643848273922
1782338000.3963492,0.0,0.0,0.0,0.0,-0.0,0.0,0.0,0.0,0.0,-6.591397713619867e-05,8.823763544977231e-06,0.0003488756805540639,-12.902851621997938,-89.99999009044156,12.902759286774286,2.766631377218368e-05,0.00020270853992738284,3.7318703391163e-05
1782338000.3993492,0.0,0.0,0.0,0.0,-0.0,0.0,0.0,0.0,0.0,-0.00014187801229809086,1.1369036885997602e-05,0.00011450669162715055,179.17813890757466,-89.99951698307994,-179.17823032769124,3.450656471839493e-05,0.0007202826128375633,0.00010971997092056873
1782338000.411375,0.0,0.0,0.0,0.0,-0.0,0.0,0.0,0.0,0.0,-0.00015134439487709674,1.6172876125690494e-05,-0.0003086765376189035,178.20559543352894,-89.99969074932801,-178.2056854942132,-2.7084318400467312e-08,0.000924526587150351,0.00011759500011694988
1782338000.414886,0.0,0.0,0.0,0.0,-0.0,0.0,0.0,0.0,0.0,-2.4645144106278477e-05,1.8506422310074503e-05,-0.0005227552427936804,179.7613588758115,-89.99988891656817,-179.7614476678409,3.613010390491816e-06,0.001593105783127541,3.944313251439006e-05
1782338000.418886,0.0,0.0,0.0,0.0,-0.0,0.0,0.0,0.0,0.0,-0.00010640733819432751,1.1481850005061299e-05,0.00012490658485601086,-2.771135637866465,-89.99997582336648,2.771046025649056,1.1123229099487667e-05,0.00048199260642579683,5.843219516608502e-05
1782338000.422895,0.0,0.0,0.0,0.0,-0.0,0.0,0.0,0.0,0.0,-0.00012249316278198455,2.0960989459630263e-05,-4.876461437723918e-05,179.01285766040408,-89.99960873846013,-179.01294687205257,3.9007747165026654e-05,0.0011702630329167058,8.457957176574248e-05
1782338000.4344535,0.0,0.0,0.0,0.0,-0.0,0.0,0.0,0.0,0.0,-8.277319623669378e-05,1.2978585455323496e-05,-0.00034573418327533414,178.57931459064724,-89.99975361096563,-178.57940341534197,9.401320607153814e-06,0.0012377217797627834,6.58839938540583e-05
1782338000.4379516,0.0,0.0,0.0,0.0,-0.0,0.0,0.0,0.0,0.0,-1.7754112105580495e-05,1.107438389765942e-05,-0.00043171174291452345,178.36092607222497,-89.99991786196092,-178.3610147508747,1.456121823735838e-05,0.0016416039474397629,3.54021200657992e-05
1782338000.4414544,0.0,0.0,0.0,0.0,-0.0,0.0,0.0,0.0,0.0,-2.8190041016846874e-05,1.7527949141190532e-05,-0.00044610355673762567,177.65608140404098,-89.99996616398396,-177.65617025589222,2.7027460871133283e-05,0.0020232560818027835,4.504768027820281e-05
1782338000.444958,0.0,0.0,0.0,0.0,-0.0,0.0,0.0,0.0,0.0,-3.786226167761716e-05,6.644218304605543e-06,0.00019268896759763607,178.12288987740436,-89.99997100640817,-178.12297899355886,1.0927496577269802e-05,5.620123611821045e-05,2.0812156468092707e-05
1782338000.4574952,0.0,0.0,0.0,0.0,-0.0,0.0,0.0,0.0,0.0,-0.00011905255458275945,8.775957033855928e-06,-4.146346405105e-06,178.83379021503828,-89.99956523943943,-178.83387841300893,2.033997047955777e-05,0.0006004849936611815,9.135380121451367e-05
1782338000.4604955,0.0,0.0,0.0,0.0,-0.0,0.0,0.0,0.0,0.0,-9.809224481454721e-05,1.177861052442413e-05,-0.0002729497063879312,179.29386471355517,-89.99966189726187,-179.2939515938785,1.3584623517230768e-06,0.0008384903733078039,7.970018228151567e-05
1782338000.4635043,0.0,0.0,0.0,0.0,-0.0,0.0,0.0,0.0,0.0,-8.685617965963215e-05,1.3609256506546245e-05,-0.0004410314941680347,178.1673230481411,-89.99985503568143,-178.16740900626422,5.619713194432175e-06,0.0014330031074850232,8.073911538094488e-05
1782338000.4680076,0.0,0.0,0.0,0.0,-0.0,0.0,0.0,0.0,0.0,-7.147425454278025e-05,1.2722751156844671e-05,-0.00036158845069729755,-8.442984079645035e-05,-89.99999470338778,0.0,-1.0727613387989162e-05,0.0004338266273524639,5.137292637214083e-05
1782338000.4800565,0.0,0.0,0.0,0.0,-0.0,0.0,0.0,0.0,0.0,5.732685000475969e-05,-1.7842066092894292e-06,-0.0002779951975848237,-8.460814574522569e-05,-89.99999474549769,0.0,1.1126630237622533e-05,0.0005982456298308571,-2.6302917555369188e-05
1782338000.484063,0.0,0.0,0.0,0.0,-0.0,0.0,0.0,0.0,0.0,-4.592912965777965e-05,1.624009583602315e-05,-0.0002401949202011586,179.84653414388995,-89.99988891713308,-179.84661885622194,3.102139096804252e-05,0.0015271900222695658,4.728604156337496e-05
1782338000.4875627,0.0,0.0,0.0,0.0,-0.0,0.0,0.0,0.0,0.0,-7.896188145636161e-05,1.940201340023076e-05,-0.0003571665826570592,-174.74375316705311,-89.99998544979697,174.7436689372941,2.0594271283163546e-05,0.001587264132825255,7.243477729545365e-05
1782338000.4915833,0.0,0.0,0.0,0.0,-0.0,0.0,0.0,0.0,0.0,-1.9728530834071617e-05,1.6207065197885518e-05,-0.0004044373829362549,-178.70671522772832,-89.99995652187076,178.7066306704137,3.0150372790990942e-05,0.0019860811890415257,3.84406499427412e-05
1782338000.5031655,0.0,0.0,0.0,0.0,-0.0,0.0,0.0,0.0,0.0,-5.147588385546941e-05,7.534035149446562e-06,0.00023158909410234086,-170.94227638981792,-89.99999021868346,170.94219138716824,1.5440014394193673e-05,0.00013971811996555365,2.8218809391088484e-05
1782338000.507664,0.0,0.0,0.0,0.0,-0.0,0.0,0.0,0.0,0.0,-0.00012373774615869002,1.0036497416510311e-05,1.7095073555177108e-06,179.15065600559439,-89.99955562132443,-179.15073978645546,2.0271246184337276e-05,0.0005873518337013953,9.442474718338443e-05
1782338000.511172,0.0,0.0,0.0,0.0,-0.0,0.0,0.0,0.0,0.0,-9.681826089796084e-05,1.3037142450583123e-05,-0.0002674086312421183,178.9588189263025,-89.99964254523269,-178.95890111986645,2.743548548847527e-06,0.0008323795666037113,7.870331146418468e-05
1782338000.515179,0.0,0.0,0.0,0.0,-0.0,0.0,0.0,0.0,0.0,-8.518207048883618e-05,1.503356264934967e-05,-0.0004496558222565395,177.96326892317944,-89.99980669098763,-177.96334913810762,1.93311884111342e-06,0.0013560139414794494,7.806844968379503e-05
1782338000.527694,0.0,0.0,0.0,0.0,-0.0,0.0,0.0,0.0,0.0,-8.883293846096842e-05,1.3265922839187043e-05,-0.0002903725360989056,-7.924108622999901e-05,-89.9999969857291,0.0,-9.80713628617682e-06,0.00043879685225164906,6.19151935588534e-05
1782338000.5322015,0.0,0.0,0.0,0.0,-0.0,0.0,0.0,0.0,0.0,-7.56981626995878e-05,1.3893943714480326e-05,-0.000348936945831814,179.35285282216935,-89.99975367098942,-179.35293118242,9.298610032851992e-06,0.0013390587608348738,7.094606703104405e-05
1782338000.536708,0.0,0.0,0.0,0.0,-0.0,0.0,0.0,0.0,0.0,-1.938154036079166e-05,1.470280484649823e-05,-0.0005645241771446042,-174.8426532622662,-89.99997575347597,174.8425749776266,1.4565858148987533e-05,0.002026823756528931,4.2359768601265206e-05
1782338000.5402083,0.0,0.0,0.0,0.0,-0.0,0.0,0.0,0.0,0.0,-2.922825011740576e-05,-8.316370820769253e-06,7.287497871391988e-06,-7.922760342614886e-05,-89.99999502842272,0.0,1.2816359184918815e-05,0.0008242531222556427,7.603374224645644e-06
1782338000.5517225,0.0,0.0,0.0,0.0,-0.0,0.0,0.0,0.0,0.0,-9.993027010110916e-05,-6.653175184586308e-06,-0.00014792680800057402,179.11541278825717,-89.99967637337322,-179.1154910286061,3.265082694341247e-05,0.0014259617287449545,8.898993314305208e-05
1782338000.556228,0.0,0.0,0.0,0.0,-0.0,0.0,0.0,0.0,0.0,-2.4605976907245262e-05,7.673038418119888e-06,-0.0003509909231155374,179.473549368604,-89.9998406140788,-179.47362770704095,1.1647673093462769e-05,0.0013257914243220122,3.278132268631644e-05
1782338000.5597343,0.0,0.0,0.0,0.0,-0.0,0.0,0.0,0.0,0.0,-4.9803327456381384e-05,1.8320679661029433e-05,-0.00045505035855506734,176.45846227481223,-89.99993709412675,-176.45854060665346,1.866864559989145e-05,0.001817000255006804,5.6773719565016275e-05
1782338000.5632405,0.0,0.0,0.0,0.0,-0.0,0.0,0.0,0.0,0.0,-7.356140804051402e-05,8.853847488867378e-06,0.00025546755084407435,-7.939708337890507e-05,-89.99999505411947,0.0,2.4649158772513644e-05,0.0004179012903504434,4.167222415597677e-05
1782338000.5763435,0.0,0.0,0.0,0.0,-0.0,0.0,0.0,0.0,0.0,-0.00012897384034078627,2.095433270665069e-05,3.798534781311851e-05,179.0149804329807,-89.99957492602275,-179.01505924869969,3.943737777905324e-05,0.0009292214557692417,8.603979566111183e-05
1782338000.5803435,0.0,0.0,0.0,0.0,-0.0,0.0,0.0,0.0,0.0,-0.00010816788901739961,2.462605776301012e-05,-0.00028600382735825743,179.26097159882084,-89.99964257451722,-179.26104856512814,6.512391845369082e-06,0.000977273212902559,8.901655997803787e-05
1782338000.58335,0.0,0.0,0.0,0.0,-0.0,0.0,0.0,0.0,0.0,-6.826136461275832e-05,2.669349046558258e-05,-0.000474297571813297,178.97121150651142,-89.99982127330696,-178.97128702506618,3.273040142148686e-06,0.0014508801088061567,6.766565948421474e-05
1782338000.5873497,0.0,0.0,0.0,0.0,-0.0,0.0,0.0,0.0,0.0,-0.00011170067199365666,1.3488677259236267e-05,9.978299641358748e-05,-0.8678977998128153,-89.99998550932006,0.8678210413404238,9.600544217871271e-06,0.0005908828782706354,6.28972639255855e-05
1782338000.5989368,0.0,0.0,0.0,0.0,-0.0,0.0,0.0,0.0,0.0,-0.00011590743845605852,2.088620744741232e-05,-6.848791316937867e-05,178.92641650708953,-89.99961838888403,-178.92649248048957,3.964236417171067e-05,0.0012461182323926117,8.185591878570128e-05
1782338000.602946,0.0,0.0,0.0,0.0,-0.0,0.0,0.0,0.0,0.0,-7.809353834508375e-05,1.2849691966845853e-05,-0.0003620846879887962,178.17281003527341,-89.99980188269517,-178.172885332338,9.743911471139873e-06,0.001295700120652283,6.395647069992599e-05
1782338000.6064517,0.0,0.0,0.0,0.0,-0.0,0.0,0.0,0.0,0.0,-2.2097180488580613e-05,1.2121759344164886e-05,-0.00045518692599357024,177.29367020937576,-89.99994197922102,-177.29374536719052,1.569172532693234e-05,0.0017392853696065501,3.946755450179162e-05
1782338000.6104536,0.0,0.0,0.0,0.0,-0.0,0.0,0.0,0.0,0.0,-3.214973127015377e-05,1.2932459059395212e-05,-0.0005298099448258927,-179.5538221650694,-89.99987925452453,179.55374696850632,2.225487863248918e-05,0.0022379433975973995,5.241585481851737e-05
1782338000.6214921,0.0,0.0,0.0,0.0,-0.0,0.0,0.0,0.0,0.0,-0.00011386740468052578,1.3079625694964297e-05,0.0003432982172551569,-7.61477807281129e-05,-89.99999439980608,0.0,2.5864496104380628e-05,0.00014990627739710675,6.536606875528952e-05
1782338000.6259959,0.0,0.0,0.0,0.0,-0.0,0.0,0.0,0.0,0.0,-0.00023590228023784413,3.353393069897105e-05,-5.97237938585984e-05,177.83215921917633,-89.99969551271703,-177.83223501298176,3.0418503031217103e-05,0.0009479988127231616,0.00015470502079998897
1782338000.6294956,0.0,0.0,0.0,0.0,-0.0,0.0,0.0,0.0,0.0,-4.442888599819794e-05,1.0851330494748092e-05,-0.00024009473951000344,179.0888095023224,-89.99973433441788,-179.08888474092842,1.3672302158904584e-05,0.0010560609537423916,4.351559899515179e-05
1782338000.6335232,0.0,0.0,0.0,0.0,-0.0,0.0,0.0,0.0,0.0,-2.8652652618856887e-05,8.834638467775032e-06,-0.0003500284470100074,179.6647452762648,-89.99984061807801,-179.6648209393722,1.4759342667665904e-05,0.00140637690044149,3.66357316063397e-05
1782338000.6460364,0.0,0.0,0.0,0.0,-0.0,0.0,0.0,0.0,0.0,-4.724726238862469e-05,1.875660977627738e-05,-0.0004474786377350107,175.9113044811583,-89.99995642203751,-175.91138010148583,2.2167860130629844e-05,0.0018900941796536808,5.5956978340783784e-05
1782338000.6495337,0.0,0.0,0.0,0.0,-0.0,0.0,0.0,0.0,0.0,-7.14460902304445e-05,8.611295405649159e-06,0.0002670735295628995,-7.626895365303392e-05,-89.9999948825142,0.0,2.422308304239215e-05,0.0003611505418720642,4.034404113378923e-05
1782338000.6535451,0.0,0.0,0.0,0.0,-0.0,0.0,0.0,0.0,0.0,-9.676774080268287e-05,1.707720289533038e-05,7.750177037123332e-05,179.20787705720608,-89.99967638101509,-179.20795272585903,3.2506684843524565e-05,0.0006344583555630943,6.577416882887712e-05
1782338000.6575558,0.0,0.0,0.0,0.0,-0.0,0.0,0.0,0.0,0.0,-6.507417058178976e-05,8.91736325197339e-06,-0.0001409534350158738,179.53371798578695,-89.9996425924128,-179.53379348412767,1.1547821540826951e-05,0.0007058914005364401,4.8182791497913625e-05
1782338000.6720977,0.0,0.0,0.0,0.0,-0.0,0.0,0.0,0.0,0.0,-0.00011119025097361614,1.105627649891606e-05,-0.000336943819144897,178.96319456017565,-89.99972949406393,-178.96326926089748,1.4099529511849422e-05,0.0013503052656315083,9.8161929148375e-05
1782338000.676106,0.0,0.0,0.0,0.0,-0.0,0.0,0.0,0.0,0.0,-2.21598592435158e-05,1.387245662837456e-05,-0.0005914083648430638,-179.8655790091365,-89.99994687345566,179.8655057602021,3.5953452300868697e-06,0.001783813065815716,4.0087997839681946e-05
1782338000.6796057,0.0,0.0,0.0,0.0,-0.0,0.0,0.0,0.0,0.0,-6.219734494190147e-05,5.477699584486028e-06,0.00017299337789757763,-4.491671160851431,-89.99998546634629,4.4915967663474,7.261247944495929e-06,7.487473518690871e-06,4.177876390567623e-05
1782338000.6831298,0.0,0.0,0.0,0.0,-0.0,0.0,0.0,0.0,0.0,-0.00021946606697728041,3.4546557234182046e-05,-0.00014647619971768083,179.10344425457507,-89.99974882626937,-179.10351893881398,3.434294300720739e-05,0.0013082621504328599,0.00015351053797138333
1782338000.6961458,0.0,0.0,0.0,0.0,-0.0,0.0,0.0,0.0,0.0,-5.1251602511460545e-05,1.5773427537272207e-05,-0.00033217936139034245,179.37849439814767,-89.99982612156718,-179.37856920209774,1.5797788624246457e-05,0.001382171575131624,5.1643727957280854e-05
1782338000.699646,0.0,0.0,0.0,0.0,-0.0,0.0,0.0,0.0,0.0,-4.6030233578669174e-05,1.716416546496384e-05,-0.0004591037977043494,176.55555197494564,-89.9999322622228,-176.55562587804866,1.463873191348308e-05,0.001753993143511103,5.698389989659204e-05
1782338000.7036598,0.0,0.0,0.0,0.0,-0.0,0.0,0.0,0.0,0.0,-4.854168511532535e-05,1.203664037369063e-05,5.126171702805533e-06,-7.314034485929445e-05,-89.99999498876292,0.0,7.207266724923714e-06,0.0002939918358339438,3.266295240817523e-05
1782338000.7071593,0.0,0.0,0.0,0.0,-0.0,0.0,0.0,0.0,0.0,-0.00010524734357180529,2.049939910147849e-05,-0.00018198254030098572,179.53277541056,-89.99987925417223,-179.53284919160882,2.4585039287160225e-05,0.0011703821473454663,8.229435492406283e-05
1782338000.7196734,0.0,0.0,0.0,0.0,-0.0,0.0,0.0,0.0,0.0,-2.121527612504142e-05,1.3192453996906018e-05,-0.0002558012315458916,179.40759082939857,-89.99984061228727,-179.40766441878523,2.358650080468613e-05,0.0013769075329350129,3.251172557830584e-05
1782338000.7231798,0.0,0.0,0.0,0.0,-0.0,0.0,0.0,0.0,0.0,-5.1165931767077336e-05,1.8262742288720984e-05,-0.00039378530272425144,176.68102484060165,-89.99992743319797,-176.68109810283798,2.1954935868091878e-05,0.0017282987703510079,5.654679199260268e-05
1782338000.7276795,0.0,0.0,0.0,0.0,-0.0,0.0,0.0,0.0,0.0,-7.039498645996522e-05,4.6807177065464e-09,-6.311966582669131e-05,-7.365875201615717e-05,-89.99999507786985,0.0,-2.15642020859743e-06,0.0005174534838391151,3.800831039401259e-05
1782338000.7316868,0.0,0.0,0.0,0.0,-0.0,0.0,0.0,0.0,0.0,-0.00010028557606768241,2.0159607249354433e-05,-0.0001430720459329436,179.0979711625324,-89.99966671129478,-179.09804498289745,3.862550461952419e-05,0.0014383687171162294,7.510239685047972e-05
1782338000.744704,0.0,0.0,0.0,0.0,-0.0,0.0,0.0,0.0,0.0,-7.03384171895826e-05,1.341768823410601e-05,-0.0004215089350403269,177.8864861322438,-89.99988884191566,-177.88655904350787,1.207240119226798e-05,0.0015324477944613675,6.288072329617903e-05
1782338000.7482076,0.0,0.0,0.0,0.0,-0.0,0.0,0.0,0.0,0.0,-3.4744828554170455e-05,1.3646063319153375e-05,-0.0004331010772001709,-8.657816841192783,-89.99998534397814,8.657743227523602,1.8571897556761068e-05,0.001756884329387125,4.7001426567222984e-05
1782338000.7517145,0.0,0.0,0.0,0.0,-0.0,0.0,0.0,0.0,0.0,-5.1367488354248924e-05,1.982071012364074e-05,-0.0005086542631577385,179.8015583061496,-89.99987925746231,-179.80163223858625,3.5641076026663805e-05,0.0024287099189637205,5.913049899447098e-05
1782338000.75622,0.0,0.0,0.0,0.0,-0.0,0.0,0.0,0.0,0.0,-3.662061385398378e-05,-6.172871056077055e-06,5.0049244191749674e-05,-178.6949865723852,-89.99999033814906,178.6949119640584,1.3360969511207174e-05,0.0007477325699418507,1.1752388748236817e-05
1782338000.7692275,0.0,0.0,0.0,0.0,-0.0,0.0,0.0,0.0,0.0,-0.00010352100482134925,2.048292914821828e-05,-0.00010157221142439078,179.0041134036245,-89.9996377198387,-179.00418690999382,4.045648616765936e-05,0.0013667770193149648,7.626254841898848e-05
1782338000.7722547,0.0,0.0,0.0,0.0,-0.0,0.0,0.0,0.0,0.0,-0.0001455719075052932,2.7575976784978842e-05,-0.0006342793913597075,177.36622574878123,-89.9998984696284,-177.36629871655094,1.0740529723155547e-05,0.002099911998790322,0.00011782620232733439
1782338000.7762687,0.0,0.0,0.0,0.0,-0.0,0.0,0.0,0.0,0.0,-5.178750125948369e-05,8.1063527531898e-06,0.000315159133082071,-7.343232120394129e-05,-89.99999876750721,0.0,2.1923163894335522e-05,6.847132895126766e-05,2.9187569896753503e-05
1782338000.7797678,0.0,0.0,0.0,0.0,-0.0,0.0,0.0,0.0,0.0,-0.0001409322744311422,1.031621639759486e-05,0.00011052447356271609,179.0967408848581,-89.99950248190936,-179.09681392035344,3.382906722270548e-05,0.0007072244593629275,0.00010886064799729299
1782338000.7917995,0.0,0.0,0.0,0.0,-0.0,0.0,0.0,0.0,0.0,-0.00015173030348557143,1.984475185357317e-05,-0.00029920298896402166,179.11697421536167,-89.9996184105554,-179.1170467604724,3.375067766456531e-06,0.0009285036207041186,0.00010414507769813979
1782338000.7963045,0.0,0.0,0.0,0.0,-0.0,0.0,0.0,0.0,0.0,-0.0001301539006669097,2.6109238162177737e-05,-0.0007071488565154563,177.60180882420448,-89.99990815578236,-177.6018816710408,6.195257638582664e-06,0.002192267077819166,0.00010959438599807388
1782338000.7993045,0.0,0.0,0.0,0.0,-0.0,0.0,0.0,0.0,0.0,-3.975076200146599e-05,1.6267401006484195e-05,0.00019092865408318834,-7.343392715505549e-05,-89.99999472520128,0.0,6.705110137178781e-06,-4.911979100674791e-05,2.6321887527635668e-05
1782338000.803314,0.0,0.0,0.0,0.0,-0.0,0.0,0.0,0.0,0.0,-0.00017704618706314155,2.6253214751858184e-05,-8.743409284361175e-05,179.4513011194636,-89.99979714444355,-179.45137471605705,2.5039483404755764e-05,0.0008937624718203601,0.00012086292264488184
1782338000.8188612,0.0,0.0,0.0,0.0,-0.0,0.0,0.0,0.0,0.0,-7.251275917738556e-05,2.8365418028789996e-05,-0.00028309925969789636,178.31763192967267,-89.99978740277905,-178.3177062268041,1.2154537856340752e-05,0.001136127191544028,6.713684914691488e-05
1782338000.8223689,0.0,0.0,0.0,0.0,-0.0,0.0,0.0,0.0,0.0,-4.108464016586346e-05,3.158676136729078e-05,-0.0005748805030990162,176.7319610542095,-89.99996129968707,-176.73203331177785,3.6928246569993575e-06,0.0017376761450712235,5.2893045699909646e-05
1782338000.8258684,0.0,0.0,0.0,0.0,-0.0,0.0,0.0,0.0,0.0,-1.89511380408754e-05,3.2728088747646434e-05,-0.0006777180749009818,178.06402906407365,-89.99992268111072,-178.06409942541566,-9.566582641841122e-06,0.0020697232758515455,4.1062889805948766e-05
1782338000.8288686,0.0,0.0,0.0,0.0,-0.0,0.0,0.0,0.0,0.0,-7.024139935559037e-05,2.38564680498268e-05,0.00014574157579521797,-159.6286460435428,-89.99998969621467,159.62857567144133,6.493178547828171e-06,-0.00010212227141609562,4.7710019212600724e-05
1782338000.840411,0.0,0.0,0.0,0.0,-0.0,0.0,0.0,0.0,0.0,-0.00011664229648245046,2.621725965683618e-05,-6.846580383227345e-05,178.80362313644542,-89.99957006542509,-178.80369158570113,7.221183866105636e-08,0.00038454444307102134,8.637633484285833e-05
1782338000.8439174,0.0,0.0,0.0,0.0,-0.0,0.0,0.0,0.0,0.0,-0.00020117302274167,2.9875709293769648e-05,-0.0005380228460393642,179.02303012388583,-89.99976331163988,-179.02309843912727,4.906783860162852e-06,0.0016524422137095015,0.00014354169255043333
1782338000.847417,0.0,0.0,0.0,0.0,-0.0,0.0,0.0,0.0,0.0,6.832266636717093e-05,-8.429408085043097e-06,-0.00048282610810296934,-3.329268837116397,-89.9999854864881,3.329200529778773,-5.188786636287791e-06,0.0007616505389472177,-3.0354790444610388e-05
1782338000.8504202,0.0,0.0,0.0,0.0,-0.0,0.0,0.0,0.0,0.0,-7.588141642684689e-07,-1.0329163058776558e-05,-0.0003075372783004965,179.72064047470263,-89.99999034054052,-179.72070911838117,4.035957320927925e-06,0.0007433218339897126,6.340921949294554e-06
1782338000.863461,0.0,0.0,0.0,0.0,-0.0,0.0,0.0,0.0,0.0,-6.537530814316545e-05,-9.251167285077907e-06,-0.00040636591763900656,178.85799787491894,-89.99980194408795,-178.85806544836535,7.27751049036904e-06,0.001402444130442102,6.464282974134529e-05
1782338000.8669615,0.0,0.0,0.0,0.0,-0.0,0.0,0.0,0.0,0.0,-7.032334987903507e-05,-5.428026650560248e-06,-0.00029214446623361946,-6.812645337256435e-05,-89.99999516320099,0.0,-1.6220023986173955e-05,0.0006530834470335272,3.977304032336395e-05
1782338000.8694642,0.0,0.0,0.0,0.0,-0.0,0.0,0.0,0.0,0.0,-7.79126096228665e-05,-5.418561622066156e-06,-0.0002930936058245932,178.7864690338398,-89.99977295446887,-178.7865365385104,3.15597207717493e-05,0.0017825911324232473,7.815498586856267e-05
1782338000.874055,0.0,0.0,0.0,0.0,-0.0,0.0,0.0,0.0,0.0,-1.092748970533062e-05,8.875820479492767e-06,-0.00046688141940612343,179.07226570096051,-89.99996618786011,-179.0723331085196,1.601515730674136e-05,0.001782449391142895,3.145258534541383e-05
1782338000.8860605,0.0,0.0,0.0,0.0,-0.0,0.0,0.0,0.0,0.0,6.135229522573887e-05,-9.00044027924019e-06,-0.0003671345446457563,178.36087648450928,-89.99998550505148,-178.36094443995347,4.386304192005739e-06,0.0008036005076357837,-2.929035442046933e-05
1782338000.88956,0.0,0.0,0.0,0.0,-0.0,0.0,0.0,0.0,0.0,-4.7577656095239046e-05,-4.5812111616059636e-06,-0.00011798665107067564,2.057427124133999,-89.99999033442414,-2.0574948641834117,-1.5145564617659087e-07,0.0004933268912487801,2.6752618638432976e-05
1782338000.89259,0.0,0.0,0.0,0.0,-0.0,0.0,0.0,0.0,0.0,-8.94478042814613e-05,-3.0171892922542355e-06,-0.0002627675007205794,178.83229357385818,-89.99971015947095,-178.83236009361136,1.2515142917503398e-05,0.001111204647218906,7.752588579097734e-05
1782338000.8955972,0.0,0.0,0.0,0.0,-0.0,0.0,0.0,0.0,0.0,-2.4393056439010565e-05,-1.5704599845181853e-06,-0.0003939302470740381,178.88704286748998,-89.99987440482622,-178.88710823213,5.807715098146681e-06,0.0013084451963991867,3.549576218420591e-05
1782338000.907611,0.0,0.0,0.0,0.0,-0.0,0.0,0.0,0.0,0.0,-2.737137535573894e-05,-1.1680905930708526e-06,-0.00043093026768193255,-175.90379749278145,-89.99995157958558,175.90373304054017,1.1316182337122395e-05,0.0015229869876798895,3.989536454411707e-05
1782338000.912184,0.0,0.0,0.0,0.0,-0.0,0.0,0.0,0.0,0.0,-4.8461216534903895e-05,-7.252111089280473e-06,0.0001190947592004189,1.9316653572797482,-89.99997583790642,-1.9317299886577888,2.6556801709488854e-06,0.00023789991223585895,3.2485710374919775e-05
1782338000.9166906,0.0,0.0,0.0,0.0,-0.0,0.0,0.0,0.0,0.0,-0.0001258180651411493,2.114819788843438e-05,-2.4838804827602277e-05,178.7690200376181,-89.99958455230357,-178.7690851426124,3.813371355139305e-05,0.0010769971659248014,8.605571349194942e-05
1782338000.92019,0.0,0.0,0.0,0.0,-0.0,0.0,0.0,0.0,0.0,-8.381120643468621e-05,2.4572839648671752e-05,-0.0003272303865162745,179.26982919335003,-89.9997295163866,-179.26989296581067,5.782267723912068e-06,0.001080605585603718,7.351871721276468e-05
1782338000.931707,0.0,0.0,0.0,0.0,-0.0,0.0,0.0,0.0,0.0,-3.844493014171108e-05,2.5796367608799322e-05,-0.00043906006366612816,179.7277311664715,-89.99986476764776,-179.72779366811795,5.848351843414079e-06,0.0014315579971319573,4.7015286192633444e-05
1782338000.9347255,0.0,0.0,0.0,0.0,-0.0,0.0,0.0,0.0,0.0,-5.959147079362429e-05,2.515613044300974e-05,-0.0003817354769056527,-2.727203497296917,-89.99997098910883,2.727142293160585,-1.2300406443373899e-05,0.00047419509486580234,4.4007012646365137e-05
1782338000.9392247,0.0,0.0,0.0,0.0,-0.0,0.0,0.0,0.0,0.0,-7.482882818146375e-05,2.2885922693471367e-05,-0.00017444506201535543,-0.5647552868200433,-89.99996619064991,0.5646950543306988,-1.1999432758429516e-05,0.00034052666475157086,5.24409677553134e-05
1782338000.9427323,0.0,0.0,0.0,0.0,-0.0,0.0,0.0,0.0,0.0,-0.00011946412428194558,2.722114208168911e-05,-0.0003181102338151471,178.84130061943648,-89.99989372547844,-178.8413607656633,3.527535483806615e-05,0.0018506974558471642,0.00010159000537066986
1782338000.9552755,0.0,0.0,0.0,0.0,-0.0,0.0,0.0,0.0,0.0,-2.7001015324617675e-05,2.8606613676624613e-05,-0.00044215281040775584,179.07798210260287,-89.9999323758319,-179.07804161175528,1.5261873106220828e-05,0.0017409716525907015,4.261682657954355e-05
1782338000.9587755,0.0,0.0,0.0,0.0,-0.0,0.0,0.0,0.0,0.0,5.7547166827604645e-05,2.9156596880451227e-05,-0.0004908209274887497,-0.9762690345825735,-89.99999033925302,0.9762111214417404,-1.572333136703602e-05,0.0006422454369906509,-3.401896278719863e-05
1782338000.9622817,0.0,0.0,0.0,0.0,-0.0,0.0,0.0,0.0,0.0,-5.584581784647978e-05,2.907776642161869e-05,-0.00048352763850229507,178.8258387316762,-89.99985507940154,-178.82589579341928,5.684634585324599e-06,0.0017028292028399043,6.181241117432476e-05
1782338000.9652882,0.0,0.0,0.0,0.0,-0.0,0.0,0.0,0.0,0.0,-0.0001215261475140307,2.4870965438594575e-05,-0.00010600360149116908,-39.569861615399134,-89.9999937346041,39.569805384527456,-9.648200998749249e-06,0.00029306676141170254,8.234109859324326e-05
1782338000.9778159,0.0,0.0,0.0,0.0,-0.0,0.0,0.0,0.0,0.0,-0.00021212149139909235,3.697418662912205e-05,-0.000365455252417989,177.7416012084527,-89.99977282894413,-177.74165832500879,3.734224346478322e-05,0.002027242530444649,0.00015315593495005125
1782338000.9813194,0.0,0.0,0.0,0.0,-0.0,0.0,0.0,0.0,0.0,7.917500625245126e-05,2.6451582399469385e-07,-0.0004916392496963664,-5.674481793673057e-05,-89.99999924919584,0.0,6.85069870010791e-06,0.0010327007925142971,-3.0746552012932984e-05
1782338000.984823,0.0,0.0,0.0,0.0,-0.0,0.0,0.0,0.0,0.0,-5.625127268406436e-05,1.9979627944083924e-05,-0.00043862343403439416,179.1546123183813,-89.99985509405761,-179.15466881571317,3.699542414320772e-05,0.0022614749032862946,6.035114802483536e-05
1782338000.988323,0.0,0.0,0.0,0.0,-0.0,0.0,0.0,0.0,0.0,-0.0001190398163576773,1.2750889036800261e-05,0.00019889641595392004,-179.8782873617713,-89.999980681267,179.8782304211459,5.4067760785590615e-06,0.0002738149848625355,8.079118669429391e-05
1782338001.000404,0.0,0.0,0.0,0.0,-0.0,0.0,0.0,0.0,0.0,-8.149882534196255e-05,1.5241813352281576e-05,-2.9334634229181032e-05,178.98780999184856,-89.999700513585,-178.98786556294544,7.981835129822864e-06,0.000323361512570117,6.166866930701783e-05
1782338001.0039134,0.0,0.0,0.0,0.0,-0.0,0.0,0.0,0.0,0.0,-7.277656253605319e-05,1.709914309646969e-05,-0.00019792064466885527,179.18322048943443,-89.99964739807902,-179.18327358911802,1.7123465802830317e-06,0.0006331552900983921,5.938672765610014e-05
1782338001.0074172,0.0,0.0,0.0,0.0,-0.0,0.0,0.0,0.0,0.0,-0.00017096869650352976,2.164076383042118e-05,-0.0006174058633347699,177.917889771296,-89.99988884414658,-177.91794216079975,1.1238097483034994e-05,0.0020814885904013565,0.00014785006777758732
1782338001.0109236,0.0,0.0,0.0,0.0,-0.0,0.0,0.0,0.0,0.0,-6.595278822862943e-05,8.68268307664597e-06,0.0003552644599545005,-10.954816459330507,-89.99999016137028,10.954763161188612,2.8375625661034607e-05,0.00020338121312541256,3.7426232008727724e-05
1782338001.0234363,0.0,0.0,0.0,0.0,-0.0,0.0,0.0,0.0,0.0,-0.0001356982700070073,1.1996182661295869e-05,5.523337825045751e-05,179.14984509167274,-89.99951697959709,-179.1498969942533,2.0229040994085092e-05,0.00044197062229334806,0.00010083694790118869
1782338001.0269425,0.0,0.0,0.0,0.0,-0.0,0.0,0.0,0.0,0.0,-0.00015211644820841834,1.6039597805481417e-05,-0.00030624320255451834,178.16140343191032,-89.99969074176002,-178.16145401275352,-2.1198683712631572e-07,0.0009152609394796626,0.00011801653605121615
1782338001.0304453,0.0,0.0,0.0,0.0,-0.0,0.0,0.0,0.0,0.0,-2.6667922017820976e-05,1.8302094434371966e-05,-0.0005141887139454398,179.6187827936293,-89.99988891507284,-179.61883204923672,5.187317465717766e-06,0.0016345053089102247,4.154147783025647e-05
1782338001.0334682,0.0,0.0,0.0,0.0,-0.0,0.0,0.0,0.0,0.0,4.9832461828000043e-05,-4.380436988559542e-06,-0.00038104722585778465,-4.9735656308570374e-05,-89.99999503827857,0.0,3.0686084713150087e-06,0.0007315936566904007,-2.137911493184071e-05
1782338001.0459795,0.0,0.0,0.0,0.0,-0.0,0.0,0.0,0.0,0.0,-7.224199361063073e-05,1.0086262543924741e-06,-3.6340052560648695e-06,-4.9885181308588464e-05,-89.99999941143527,0.0,3.109574860170316e-06,0.00048396488399169883,4.03017686952231e-05
1782338001.0504825,0.0,0.0,0.0,0.0,-0.0,0.0,0.0,0.0,0.0,-0.0001061248135263211,2.130018151060037e-06,-0.00010965470237333444,179.07117140363934,-89.99963772695952,-179.07122067625187,3.350638859805833e-05,0.001331386778892069,9.234585193710906e-05
1782338001.0535054,0.0,0.0,0.0,0.0,-0.0,0.0,0.0,0.0,0.0,-0.00015622177092795597,2.8731797612717705e-05,-0.0006619965060463473,177.6815051833391,-89.99988882652539,-177.6815542273867,9.039100677728416e-06,0.002132513221682951,0.00012447883252020712
1782338001.0581083,0.0,0.0,0.0,0.0,-0.0,0.0,0.0,0.0,0.0,-5.4385200361616176e-05,8.266880131278718e-06,0.0003405932047591536,-5.000884351371426e-05,-89.99999490657517,0.0,2.4247851949296192e-05,7.463438827397484e-05,3.074798348953144e-05
1782338001.0706174,0.0,0.0,0.0,0.0,-0.0,0.0,0.0,0.0,0.0,-0.00019402253101210134,2.7017491407785122e-05,-9.00864614251128e-06,179.34901261118176,-89.99974884080684,-179.34906224267235,2.643304625736262e-05,0.000700357202097914,0.00012824451155373545
1782338001.0753791,0.0,0.0,0.0,0.0,-0.0,0.0,0.0,0.0,0.0,-7.312607639561509e-05,2.9181776761204955e-05,-0.00021019477100857721,179.49696184118213,-89.99971986820835,-179.49701199888736,1.0263251177932957e-05,0.0008775708874887154,6.388692192520751e-05
1782338001.078379,0.0,0.0,0.0,0.0,-0.0,0.0,0.0,0.0,0.0,-6.127266071473912e-05,3.231906033837966e-05,-0.0004952671769556802,-179.51265121649595,-89.99987925381787,179.51260266618613,4.592743114018988e-06,0.0015313036895239747,6.399390990882775e-05
1782338001.0823863,0.0,0.0,0.0,0.0,-0.0,0.0,0.0,0.0,0.0,-2.2320651203189693e-05,1.6158947140949922e-05,-0.00044840094076743667,-175.5532322267894,-89.99996124596245,175.55318330244287,2.290079604694423e-05,0.001785155235173544,3.858040785086103e-05
1782338001.0949292,0.0,0.0,0.0,0.0,-0.0,0.0,0.0,0.0,0.0,-3.8289852008007534e-05,1.9149691441345317e-05,-0.0004938417890403491,178.38141755977432,-89.9998792099933,-178.3814664065774,3.7451952121230685e-05,0.0024377833630974716,5.198393986490636e-05
1782338001.0989292,0.0,0.0,0.0,0.0,-0.0,0.0,0.0,0.0,0.0,-0.00011313676447654685,1.4258871561705234e-05,0.00029121035901990313,-144.60061176828788,-89.99999407499364,144.6005628503876,1.8771141396310578e-05,3.309580048593898e-05,6.529909053698329e-05
1782338001.102935,0.0,0.0,0.0,0.0,-0.0,0.0,0.0,0.0,0.0,-0.0002315025696550933,3.346642723741501e-05,-7.404757436006053e-05,177.99776849751777,-89.99969554475385,-177.9978171560118,2.9901794392926654e-05,0.0009767620280893934,0.0001527688450270016
1782338001.1059415,0.0,0.0,0.0,0.0,-0.0,0.0,0.0,0.0,0.0,-4.066299187971393e-05,1.064213910230344e-05,-0.0002478960576971239,179.26848783206705,-89.99975366662487,-179.26853621004125,1.3674107538017221e-05,0.0010796944500282989,4.15501942647991e-05
1782338001.117968,0.0,0.0,0.0,0.0,-0.0,0.0,0.0,0.0,0.0,-2.903374361777475e-05,1.1351159548352129e-05,-0.00035662599530810515,-179.9406472259153,-89.99984062072024,179.9405985942278,1.5292698180266156e-05,0.0014411575057789877,3.953018875394509e-05
1782338001.1214783,0.0,0.0,0.0,0.0,-0.0,0.0,0.0,0.0,0.0,-4.0858062177401676e-05,1.8181533143643925e-05,-0.0004517687004530833,-4.8723695663347885e-05,-89.99999489068384,0.0,2.224189656360434e-05,0.0019065645313850119,5.277920408867622e-05
1782338001.1259823,0.0,0.0,0.0,0.0,-0.0,0.0,0.0,0.0,0.0,4.053136261222866e-05,-1.2445717707227318e-05,-0.00032336516209643756,-4.916613967353153e-05,-89.99999798293233,0.0,5.087724458458632e-07,0.0008081048320284908,-2.0410401294285426e-05
1782338001.129482,0.0,0.0,0.0,0.0,-0.0,0.0,0.0,0.0,0.0,-7.149214309792705e-05,-1.205485946509083e-05,-0.000359995035663033,178.33315478148464,-89.99978740446153,-178.3332031767014,2.6149412940367996e-05,0.0017573478973719578,7.310749554339109e-05
1782338001.1415172,0.0,0.0,0.0,0.0,-0.0,0.0,0.0,0.0,0.0,-7.590873200907585e-05,-1.2342077241121613e-05,-0.0003343943946747794,167.88959202779475,-89.99999012079589,-167.88963964798012,5.716538476056724e-07,0.0004728406339468442,5.352534207564745e-05
1782338001.1445205,0.0,0.0,0.0,0.0,-0.0,0.0,0.0,0.0,0.0,-6.842704890260577e-05,-1.1772425994056469e-05,-0.00038679126324154823,178.3133924495254,-89.99978740231494,-178.3134389225199,8.128884856499888e-06,0.0013493122005927504,6.60724346707836e-05
1782338001.1490207,0.0,0.0,0.0,0.0,-0.0,0.0,0.0,0.0,0.0,-1.586881640064677e-05,-1.0982958860152542e-05,-0.0004563881144609575,167.63617503342041,-89.99999011131442,-167.6362204392936,-2.384152852965081e-05,0.0006074562422159551,1.532108555893566e-05
1782338001.1525266,0.0,0.0,0.0,0.0,-0.0,0.0,0.0,0.0,0.0,-5.58802543574912e-05,-1.085571955569817e-05,-0.000468464901037258,177.87998078129112,-89.99985501059068,-177.88002526150044,7.976137792091727e-06,0.0015773791359321276,6.0278897073058254e-05
1782338001.1635392,0.0,0.0,0.0,0.0,-0.0,0.0,0.0,0.0,0.0,-0.0001155875223144317,-1.365849600944364e-05,-0.00021462888085280833,-4.284599781334178,-89.99998062716894,4.284556659193889,5.314453866897064e-07,0.000306154221873839,7.872013297420385e-05
1782338001.168039,0.0,0.0,0.0,0.0,-0.0,0.0,0.0,0.0,0.0,-8.565685819408217e-05,-1.2476000773992558e-05,-0.0003226520252507309,179.17777473114282,-89.99972468031714,-179.17781649248917,1.0078455312869458e-06,0.001079315847569899,7.440775847940252e-05
1782338001.1720693,0.0,0.0,0.0,0.0,-0.0,0.0,0.0,0.0,0.0,-2.2751363866853212e-05,1.4158293356367709e-05,-0.0005216971230784086,-179.53780745927594,-89.99992755255435,179.53776561509645,1.2917103901336962e-05,0.001857226800250403,4.17974964731415e-05
1782338001.1760747,0.0,0.0,0.0,0.0,-0.0,0.0,0.0,0.0,0.0,3.2781196263178972e-06,-1.4911365583075748e-05,-0.0002118600052285406,-3.5935547633227296,-89.99998548243803,3.5935124049919858,-4.032570504464152e-06,0.0007685369384703281,-5.108930425108462e-06
1782338001.1881335,0.0,0.0,0.0,0.0,-0.0,0.0,0.0,0.0,0.0,-8.662385764600917e-05,1.9993588318181938e-05,-0.0002607944826054948,179.02897436276115,-89.99974399059167,-179.029017132494,3.7753650041898845e-05,0.0017588400015086018,7.077307430028878e-05
1782338001.1921406,0.0,0.0,0.0,0.0,-0.0,0.0,0.0,0.0,0.0,-9.205213615056181e-06,8.227103647646294e-06,-0.00044022388306446124,-179.97544080413715,-89.99993721425106,179.97539864962818,1.5512588975524882e-05,0.0016920235725033988,2.9116667129082195e-05
1782338001.1961465,0.0,0.0,0.0,0.0,-0.0,0.0,0.0,0.0,0.0,6.334035112395115e-05,5.488711968798955e-06,-0.00042192791523254356,-177.8929894123896,-89.99997583529922,177.89294696234546,1.7663240210669264e-05,0.0010919416257543734,-2.2919117934427962e-05
1782338001.199147,0.0,0.0,0.0,0.0,-0.0,0.0,0.0,0.0,0.0,-2.1588444497942804e-05,1.5583297832118383e-05,-0.0003721107745003079,-179.65596581710457,-89.9999420428869,179.6559236622289,3.0675545200303517e-05,0.0019056647736873115,3.768234408431498e-05
1782338001.2111669,0.0,0.0,0.0,0.0,-0.0,0.0,0.0,0.0,0.0,-3.9802485956735955e-05,1.6620023037220003e-05,-0.0004669291769592306,179.46990134721182,-89.99986476337531,-179.46994303488339,3.212322008300361e-05,0.002339651532786921,5.941164302967344e-05
1782338001.2146761,0.0,0.0,0.0,0.0,-0.0,0.0,0.0,0.0,0.0,-0.00011842144447015779,9.855485275046068e-06,0.00016011998770516594,-2.944407842892909,-89.99998065577361,2.9443643632215575,1.9421648327142757e-05,0.00021067910387993142,8.052013343915248e-05
1782338001.217676,0.0,0.0,0.0,0.0,-0.0,0.0,0.0,0.0,0.0,-0.00012021029246941162,1.256079613048515e-05,-8.486366812551282e-05,179.02872520532074,-89.9995942492268,-179.02876773734872,1.1214165094858636e-05,0.0006116093044778861,9.256477268410052e-05
1782338001.221682,0.0,0.0,0.0,0.0,-0.0,0.0,0.0,0.0,0.0,-9.055671723150266e-05,1.518857728721163e-05,-0.00032236555094016086,178.4810450291574,-89.99974876876023,-178.48108591178183,1.3043887102560933e-06,0.0009709603658122029,7.628250338973933e-05
1782338001.2342236,0.0,0.0,0.0,0.0,-0.0,0.0,0.0,0.0,0.0,-3.3501929817378816e-05,1.774999428193218e-05,-0.0005573242847162951,177.04751768857668,-89.9999516390829,-177.04755721200826,4.3615886756079354e-06,0.0017140553939353602,4.736559276127585e-05
1782338001.2377234,0.0,0.0,0.0,0.0,-0.0,0.0,0.0,0.0,0.0,-3.396831392535203e-05,1.0282181638791358e-05,0.00012800387723008408,-173.47575483089605,-89.99997569423087,173.47571594096632,9.867918409614855e-06,0.00010234508808138365,2.2893973261873328e-05
1782338001.2417297,0.0,0.0,0.0,0.0,-0.0,0.0,0.0,0.0,0.0,-0.00010567010014012931,1.2991071306547138e-05,-0.00011476062905539841,178.66380953149374,-89.99960869012101,-178.66384425110297,-7.628754016165716e-06,0.0003855591443118214,7.849339650435137e-05
1782338001.24524,0.0,0.0,0.0,0.0,-0.0,0.0,0.0,0.0,0.0,-0.00020099687502794143,3.1347369849181144e-05,-0.0005686116558704719,178.90726985886454,-89.99978745576465,-178.90730480141795,7.065744441372875e-06,0.001799969845343522,0.00014607175595153952
1782338001.257275,0.0,0.0,0.0,0.0,-0.0,0.0,0.0,0.0,0.0,-9.09716396527092e-05,2.614985852651563e-05,-0.00010923872473493344,0.5543578816611243,-89.99998068040628,-0.5543931060424492,-2.2667225000570518e-05,0.0005409768391832028,6.343482280044173e-05
1782338001.2612805,0.0,0.0,0.0,0.0,-0.0,0.0,0.0,0.0,0.0,-8.922493104509388e-05,2.8206896572801147e-05,-0.0003003074362773606,178.8361082831214,-89.9997101598619,-178.8361410521159,-7.991533078353692e-06,0.000983849822338773,7.545713663180538e-05
1782338001.264284,0.0,0.0,0.0,0.0,-0.0,0.0,0.0,0.0,0.0,-2.2106667250101124e-05,2.927366656978173e-05,-0.00039939733052298307,178.98201068046384,-89.99987440869704,-178.9820422191764,5.753776297986391e-06,0.0013258973882302135,3.411859925943352e-05
1782338001.2682836,0.0,0.0,0.0,0.0,-0.0,0.0,0.0,0.0,0.0,-2.8503806052651425e-05,2.976670052657035e-05,-0.0004445234604597289,178.45165747582251,-89.99996134850916,-178.45168771112932,6.236722480203623e-06,0.0014950377888152818,4.025776327065964e-05
1782338001.2803228,0.0,0.0,0.0,0.0,-0.0,0.0,0.0,0.0,0.0,-4.405368619472518e-05,2.3878014513442054e-05,9.300425663740979e-05,-2.9691935510616914e-05,-89.99999952534924,0.0,6.719118649182747e-06,0.00021044046956077356,2.9527522117061724e-05
1782338001.2838356,0.0,0.0,0.0,0.0,-0.0,0.0,0.0,0.0,0.0,-0.00010796243970115631,2.6534948255945246e-05,-0.00014633882323149259,178.83492940221987,-89.99962320766251,-178.83495647315755,-6.278964806555556e-06,0.0005459431161284596,8.236748636378335e-05
1782338001.2873297,0.0,0.0,0.0,0.0,-0.0,0.0,0.0,0.0,0.0,-0.00017958351372815613,3.1545323212906624e-05,-0.0006084118409356015,179.45318286850102,-89.99979714452353,-179.4532082504057,1.9038096932253101e-06,0.0018067589765080486,0.00014948563387268753
1782338001.291338,0.0,0.0,0.0,0.0,-0.0,0.0,0.0,0.0,0.0,-2.036319877399361e-05,2.865741500380707e-05,-0.0003593874105288234,166.55680498732158,-89.99998510281341,-166.55682969081,-5.190251620596043e-05,0.000611756685196828,1.6468177311334366e-05
1782338001.303354,0.0,0.0,0.0,0.0,-0.0,0.0,0.0,0.0,0.0,5.2359729802903946e-05,2.814936338229812e-05,-0.0003160966071961555,-2.5435758303204483e-05,-89.99999479940897,0.0,1.1633254912798447e-05,0.0006673860021376269,-2.8673151352702826e-05
1782338001.306185,0.0,0.0,0.0,0.0,-0.0,0.0,0.0,0.0,0.0,6.273021050688393e-05,3.1817480669876252e-06,-0.0003050207781169383,-2.5567985513087523e-05,-89.99999468787794,0.0,1.5120806753454581e-05,0.0007078723383631293,-2.3750069960753436e-05
1782338001.3103645,0.0,0.0,0.0,0.0,-0.0,0.0,0.0,0.0,0.0,-4.182055245484848e-05,1.6230248185986257e-05,-0.00026787766394111527,-179.96653778055972,-89.99990823620587,179.9665119938476,3.109598991181195e-05,0.0016103852333383317,4.5900642489675785e-05
1782338001.3128848,0.0,0.0,0.0,0.0,-0.0,0.0,0.0,0.0,0.0,-1.5379295686460803e-05,1.4607721362297957e-05,-0.00035281584437712885,-179.8297796427453,-89.99992755459198,179.82975373213355,2.6366091054439438e-05,0.0017350377595452546,3.346730414076304e-05
1782338001.3259015,0.0,0.0,0.0,0.0,-0.0,0.0,0.0,0.0,0.0,-2.3725803282271945e-05,1.638255512000368e-05,-0.00041105365760959,-178.79309956632147,-89.9999565233017,178.7930740305591,2.7491452719281142e-05,0.001934110284835461,4.068974235249236e-05
1782338001.3294015,0.0,0.0,0.0,0.0,-0.0,0.0,0.0,0.0,0.0,8.469278303990769e-05,-3.3800867547617885e-06,-0.00039021974365407416,-2.5991105083693096e-05,-89.99999496372732,0.0,1.2189893951172181e-05,0.000839598495486868,-4.167220901007258e-05
1782338001.3324294,0.0,0.0,0.0,0.0,-0.0,0.0,0.0,0.0,0.0,-7.350137589417526e-05,2.134818204205206e-06,1.6189327896071647e-05,-2.6358879745953208e-05,-89.99999503436678,0.0,4.03001406757232e-06,0.00047770920667432646,4.048150186728622e-05
1782338001.3359413,0.0,0.0,0.0,0.0,-0.0,0.0,0.0,0.0,0.0,-0.0001075052073734922,2.0311654507863938e-05,-9.519410246956774e-05,179.1313073130704,-89.99962807246773,-179.13133355775983,3.900369946780044e-05,0.0013081998013856795,7.771995707169314e-05
1782338001.3474603,0.0,0.0,0.0,0.0,-0.0,0.0,0.0,0.0,0.0,-7.403296483398853e-05,1.2966091791345022e-05,-0.0003786121797565728,178.6016383652726,-89.99981158665979,-178.60166385847614,1.1011211829703772e-05,0.001378723160301505,6.28271761288821e-05
1782338001.3519866,0.0,0.0,0.0,0.0,-0.0,0.0,0.0,0.0,0.0,-4.242544721154514e-05,1.7807388451039002e-05,-0.0004685636669241264,178.66229372512973,-89.99993236615472,-178.6623195206473,1.8821451022470126e-05,0.0018618850502883327,5.291955426025643e-05
1782338001.3550653,0.0,0.0,0.0,0.0,-0.0,0.0,0.0,0.0,0.0,7.847523635991314e-05,1.7215914573563668e-05,-0.0004152445819190522,177.15648486196477,-89.99999032874767,-177.156510153022,7.17895267445981e-06,0.0007983371241323935,-4.6983017334683555e-05
1782338001.358565,0.0,0.0,0.0,0.0,-0.0,0.0,0.0,0.0,0.0,-5.971473162911741e-05,1.7082840915790045e-05,-0.00040296303569913586,178.97854914682873,-89.999797121523,-178.97857428185532,2.130830526806401e-05,0.001870250301507872,6.659062924700438e-05
1782338001.3711038,0.0,0.0,0.0,0.0,-0.0,0.0,0.0,0.0,0.0,-8.079644412168925e-08,1.769869498980967e-05,-0.00045722460335794455,-177.8514224860246,-89.99999033385961,177.85139867330656,-1.1959303296964107e-05,0.0005859031206349648,4.80304011583141e-06
1782338001.374111,0.0,0.0,0.0,0.0,-0.0,0.0,0.0,0.0,0.0,-5.760508314611418e-05,1.747062117036032e-05,-0.00043576059636195254,179.28430256280112,-89.99977781773904,-179.28432578479885,1.4533581122012722e-05,0.0017002757856628683,6.2858649231536e-05
1782338001.3781106,0.0,0.0,0.0,0.0,-0.0,0.0,0.0,0.0,0.0,-8.208352848859432e-05,1.4604960274611477e-05,-0.00018668325789684588,-177.9100266717539,-89.99996133690189,177.9100039432728,-3.167451183002107e-05,0.00044675850243817365,5.64435816561264e-05
1782338001.382624,0.0,0.0,0.0,0.0,-0.0,0.0,0.0,0.0,0.0,-4.3268970398434235e-05,1.5350386624685806e-05,-0.00025760107506875854,179.6134354146071,-89.99983578740296,-179.6134567571625,3.320241134193064e-06,0.0009183264178235261,4.292304370438532e-05
1782338001.395134,0.0,0.0,0.0,0.0,-0.0,0.0,0.0,0.0,0.0,-7.307522316100546e-05,1.8509522628969634e-05,-0.0005478679817068621,174.985087959377,-89.99997091061162,-174.98510764057187,8.191557718783647e-06,0.001813621117945253,7.635729018195452e-05
1782338001.3981338,0.0,0.0,0.0,0.0,-0.0,0.0,0.0,0.0,0.0,-2.4948740053618138e-05,1.5210800007061063e-05,-0.00027027849553201054,-176.53465081242726,-89.99997096888329,176.53463179533443,-7.031097961247292e-05,0.0005344981869447648,1.8624356161158224e-05
1782338001.4016404,0.0,0.0,0.0,0.0,-0.0,0.0,0.0,0.0,0.0,-1.2227394737292364e-05,1.622421871508257e-05,-0.0003712387959370436,-9.341569391513406,-89.99999021083367,9.341551879713721,5.654865428603373e-06,0.0012117724321645137,2.512800371564799e-05
1782338001.4046438,0.0,0.0,0.0,0.0,-0.0,0.0,0.0,0.0,0.0,-5.590870000761232e-05,1.7531823234768134e-05,-0.0004910100532820429,179.38896242460135,-89.99985510158994,-179.38897910383233,8.100783659955235e-06,0.001735183741668712,6.232166639809975e-05
1782338001.4171925,0.0,0.0,0.0,0.0,-0.0,0.0,0.0,0.0,0.0,-0.00012122758911857597,1.2848080153758168e-05,-6.530744945558259e-05,-1.5993112559379126e-05,-89.99999936373621,0.0,4.345617214260517e-06,0.0002995047896010625,8.212840832205845e-05
1782338001.4211953,0.0,0.0,0.0,0.0,-0.0,0.0,0.0,0.0,0.0,-9.881129252534658e-05,1.4242642314068565e-05,-0.00019446847046957809,178.96860307519069,-89.99968602041444,-178.96861849672587,1.6669291350556466e-05,0.001046320635568347,8.318734874484083e-05
1782338001.4241989,0.0,0.0,0.0,0.0,-0.0,0.0,0.0,0.0,0.0,-5.0349577021346233e-05,1.527398559076251e-05,-0.0004630202082805169,179.11166254805084,-89.99987924367264,-179.1116776929352,1.1473017085563907e-05,0.001642111209113442,5.4676444657445795e-05
1782338001.4286985,0.0,0.0,0.0,0.0,-0.0,0.0,0.0,0.0,0.0,-9.05782270895161e-05,1.5405279179559477e-07,-0.00012718858079733297,0.4154787165725136,-89.99995653180414,-0.4154948524328962,-8.034932632719594e-06,0.0005166748164441299,5.003110098686379e-05
1782338001.43991,0.0,0.0,0.0,0.0,-0.0,0.0,0.0,0.0,0.0,-0.00010089414932578293,2.0875055448536668e-05,-0.00018983069999466064,178.4226015359994,-89.99975842483904,-178.42261775159702,3.783484875539266e-05,0.0015528547635477166,7.731933500120643e-05
1782338001.4439204,0.0,0.0,0.0,0.0,-0.0,0.0,0.0,0.0,0.0,-4.75058627357619e-05,2.349387756740474e-05,-0.0004220826321042955,178.18383511766876,-89.99985986910305,-178.18384939153398,9.495047971254274e-06,0.0014756021428094957,5.410051623748652e-05
1782338001.4479203,0.0,0.0,0.0,0.0,-0.0,0.0,0.0,0.0,0.0,-5.50398876006691e-05,-4.4975270685800465e-07,-0.0002979461616844957,-1.4149191784132391e-05,-89.99999450443275,0.0,-2.628493069567208e-06,0.000562818654819,3.251842333645212e-05
1782338001.4514408,0.0,0.0,0.0,0.0,-0.0,0.0,0.0,0.0,0.0,-8.802912381845464e-05,2.473392248379946e-05,-0.0003818990359423459,176.18261033790466,-89.9999273938216,-176.18262501138076,3.020737211491471e-05,0.0019089191742113407,7.909587978126343e-05
1782338001.4624696,0.0,0.0,0.0,0.0,-0.0,0.0,0.0,0.0,0.0,7.6243246034087396e-06,1.2812776323000273e-05,-0.00042873574424985686,-177.72789335165805,-89.99997583263709,177.72787916852977,2.493008198870365e-05,0.001668376959638443,1.8023798964997996e-05
1782338001.466976,0.0,0.0,0.0,0.0,-0.0,0.0,0.0,0.0,0.0,5.8851279872870304e-05,6.058736850511145e-06,-0.0004186618400082266,-173.17280815584496,-89.99999027167358,173.17279341593348,2.2011448249589722e-05,0.0012980715881641112,-1.8951196495566663e-05
1782338001.469476,0.0,0.0,0.0,0.0,-0.0,0.0,0.0,0.0,0.0,-5.46522683366327e-05,6.229840522442586e-06,-0.0004343943985041728,179.42789469767578,-89.99984544278027,-179.42790905840835,3.139593858158232e-05,0.002210211458308357,6.776904409352021e-05
1782338001.4740207,0.0,0.0,0.0,0.0,-0.0,0.0,0.0,0.0,0.0,-0.00013386958740675803,2.207952806390992e-06,-7.579949982511928e-05,-1.3279867108376813e-05,-89.99999903957055,0.0,9.50333049953725e-06,0.0002922747887045426,9.079524396282115e-05
1782338001.4860246,0.0,0.0,0.0,0.0,-0.0,0.0,0.0,0.0,0.0,-9.710208610293735e-05,3.5619950034789088e-06,-0.00020054602752072527,179.00071583180298,-89.99970051476727,-179.00072847485356,1.730984508407539e-05,0.0010424749760861343,8.186722830988721e-05
1782338001.4895244,0.0,0.0,0.0,0.0,-0.0,0.0,0.0,0.0,0.0,-3.067176636439565e-05,5.3499365739889015e-06,-0.00036162734448729736,179.29449234137863,-89.99983577869088,-179.29450367638066,3.762544724189113e-06,0.0011404144970636309,3.742298959547974e-05
1782338001.49311,0.0,0.0,0.0,0.0,-0.0,0.0,0.0,0.0,0.0,-4.4217466788460126e-05,6.60048048379463e-06,-0.0004763193111515769,176.80766180615237,-89.99992260514303,-176.80767194748043,6.778801937774141e-06,0.0015627356390579721,5.280474404245011e-05
1782338001.4961133,0.0,0.0,0.0,0.0,-0.0,0.0,0.0,0.0,0.0,-6.848489282800516e-05,2.762377674980328e-07,0.00010139909868768913,-1.0020468359248187e-05,-89.9999983748605,0.0,7.677248707979199e-06,0.0002316300732397885,4.6235626124163035e-05
1782338001.508629,0.0,0.0,0.0,0.0,-0.0,0.0,0.0,0.0,0.0,-0.00010957747822753846,2.9389139346730044e-06,-0.00013988786555870457,179.19243186366035,-89.99960392752645,-179.19243997799038,2.6498043460978857e-07,0.0005727928245932371,8.400898439547801e-05
1782338001.5126345,0.0,0.0,0.0,0.0,-0.0,0.0,0.0,0.0,0.0,-9.691428355808522e-05,5.155365169305667e-06,-0.00034279019763076705,178.28273207340558,-89.99976807156261,-178.2827388952183,1.9296929513570484e-06,0.0010603512541833842,8.216157787290578e-05
1782338001.5156405,0.0,0.0,0.0,0.0,-0.0,0.0,0.0,0.0,0.0,-2.253341639884543e-05,6.181463190382783e-06,-0.00043694346284798267,177.2189942181621,-89.99993230486115,-177.21899995159245,6.727713153501014e-06,0.0014641229030787442,3.63173497687146e-05
1782338001.5196407,0.0,0.0,0.0,0.0,-0.0,0.0,0.0,0.0,0.0,-2.593889753954503e-05,6.697182731619346e-06,-0.00048431238480481744,-165.6515100282777,-89.99999002964336,165.65150518032902,1.176991136369461e-05,0.0017031397397696652,4.125211877711007e-05
1782338001.5311594,0.0,0.0,0.0,0.0,-0.0,0.0,0.0,0.0,0.0,-3.416360315647813e-05,8.234441500765032e-06,-0.0006234432631697324,178.30308535192503,-89.99987437342632,-178.3030889140626,3.244115093418434e-06,0.0020005314115846065,5.066271199612407e-05
1782338001.534166,0.0,0.0,0.0,0.0,-0.0,0.0,0.0,0.0,0.0,-0.00011187420358633989,-1.0299357764970119e-06,0.00023537786472691214,-17.6732542272995,-89.99998986218395,17.673250470404568,1.8058906005858155e-05,5.367005494555461e-05,7.569707596923805e-05
